{"copyright":"Copyright Sveriges Radio 2014. All rights reserved.","messages":[{"id":1115618,"priority":5,"createddate":"\/Date(1407729295770+0200)\/","title":"E6 Inre ringvägen Malmö","exactlocation":"Västkustvägen tpl Spillepengen","description":"Stor risk för köer pga ombyggnad. Valmöjligheterna i rondellen begränsas och trafiken måste välja andra vägar.","latitude":55.633197784423828,"longitude":13.055941581726074,"category":0,"subcategory":"Vägarbete"},{"id":1126561,"priority":3,"createddate":"\/Date(1408259210733+0200)\/","title":"Kungälv Jordfallsbron","exactlocation":"Bohus - Kungälv","description":"Arbeten på bron med att byta kantbalk. Planerna är att två körfält kommer att vara öppna i den riktning som är hårdast belastad.","latitude":57.855087280273438,"longitude":12.01069164276123,"category":0,"subcategory":"Trafikstörning"},{"id":1205525,"priority":5,"createddate":"\/Date(1410992781797+0200)\/","title":"Sollefteå kommun","exactlocation":"Långbjörns kraftstation söder om Junsele","description":"Pga arbeten vid kraftstationen stängs vägen över dammen mellan Röåns skjutbana och rv 90. Avstängt för all trafik från 26/7 till 31/3 2015. ","latitude":63.637242114815805,"longitude":16.777747164619381,"category":0,"subcategory":"Vägarbete"},{"id":1248089,"priority":5,"createddate":"\/Date(1411483227807+0200)\/","title":"Rv 13 Hörby–Sjöbo","exactlocation":"Mellan Östraby och Korsholm","description":"Begränsad framkomlighet pga beläggningsarbete.","latitude":55.781333923339844,"longitude":13.67626953125,"category":0,"subcategory":"Vägarbete"},{"id":1236052,"priority":3,"createddate":"\/Date(1412659894607+0200)\/","title":"Lv 1610 Viskafors-Rydboholm","exactlocation":"Varbergsvägen","description":"Brorenovering. Avstängt. Omledning.","latitude":57.648490905761719,"longitude":12.879611015319824,"category":0,"subcategory":"Vägarbete"},{"id":1278222,"priority":3,"createddate":"\/Date(1414485760700+0100)\/","title":"E4 Piteå-Norrfjärden","exactlocation":"Boviken-Norrfjärden","description":"Ombyggnation av E4 till 2+1 väg med mittvajer. ","latitude":65.3726806640625,"longitude":21.42949104309082,"category":0,"subcategory":"Vägarbete"},{"id":1272716,"priority":5,"createddate":"\/Date(1415103788277+0100)\/","title":"Lv 824 Leipikvattnet -Stekenjokk","exactlocation":"","description":"Vägen är stängd vintertid.","latitude":64.950035095214844,"longitude":14.196930885314941,"category":0,"subcategory":"Trafikstörning"},{"id":1265946,"priority":5,"createddate":"\/Date(1415103825157+0100)\/","title":"Lv 623 Håkansta","exactlocation":"Håkanstafärjan","description":"Påfartsrampen till färjan har nedsatt bärighet till max 4 ton. Berör tung trafik. Gäller tills vidare.","latitude":63.136157989501953,"longitude":14.321918487548828,"category":0,"subcategory":"Trafikstörning"},{"id":1212188,"priority":3,"createddate":"\/Date(1408596612090+0200)\/","title":"E12 Lycksele-Storuman","exactlocation":"Åskilje, i båda riktningar","description":"Trafik dirigeras med trafikljus och lots pga beläggningsarbete.","latitude":65.009452819824219,"longitude":17.670541763305664,"category":0,"subcategory":"Vägarbete"},{"id":1240737,"priority":3,"createddate":"\/Date(1416034897950+0100)\/","title":"Rv 51 Finspång","exactlocation":"Norrköpingsvägen. Korsningen rv 51/Slottsgatan","description":"Begränsad framkomlighet och risk för köbildning. Byggnation av rondell. ","latitude":58.705530830692638,"longitude":15.785864334178813,"category":0,"subcategory":"Vägarbete"},{"id":1197539,"priority":3,"createddate":"\/Date(1416044972530+0100)\/","title":"Rv 21 Hässleholm-Kristianstad","exactlocation":"Ullstorp-Vanneberga","description":"Bygge av 2+1 väg. Hastighetsbegränsning 70 km/h.","latitude":56.068260192871094,"longitude":13.947724342346191,"category":0,"subcategory":"Vägarbete"},{"id":1294695,"priority":3,"createddate":"\/Date(1416379643500+0100)\/","title":"E6 Göteborg-Mölndal","exactlocation":"Olskroksmotet till Ullevimotet ","description":"Arbete med belysningsarbete och arbete med bullerplank. Tidvis stänger man påfarten till E6.\n","latitude":57.7116813659668,"longitude":11.996500015258789,"category":0,"subcategory":"Vägarbete"},{"id":1289649,"priority":5,"createddate":"\/Date(1416474461660+0100)\/","title":"Lv747 Dormsjö-Brovallen ","exactlocation":"","description":"Fällning av ett stort antal alléträd i höjd med Kloster. Skylift används, varav vägen behöver vara avstängd. Arbetet utförs måndag till fredag mellan kl 08.00-15.00. ","latitude":60.370918273925781,"longitude":16.16351318359375,"category":0,"subcategory":"Vägarbete"},{"id":1293594,"priority":3,"createddate":"\/Date(1416499549720+0100)\/","title":"Lv 845 Bor","exactlocation":"Bron över Bårsån","description":"Broarbete.","latitude":59.559253692626953,"longitude":15.286935806274414,"category":0,"subcategory":"Vägarbete"},{"id":1295423,"priority":3,"createddate":"\/Date(1416573414607+0100)\/","title":"Rv 61 Skåre-Karlstad","exactlocation":"Från Katås till Bergviksmotet","description":"Räckesarbeten.","latitude":59.379234313964844,"longitude":13.428887367248535,"category":0,"subcategory":"Vägarbete"},{"id":1296320,"priority":4,"createddate":"\/Date(1416579748090+0100)\/","title":"Ljungskile","exactlocation":"Hälle och Lyckorna","description":"Renspolning av vattenledningarna sker 24 nov–12 dec. Vattnet stängs av vid olika tider och berörda hushåll meddelas per post två dagar innan.  Inga kemikalier används och vattnet är ofarligt.","latitude":58.215723715578676,"longitude":11.907643089049248,"category":3,"subcategory":"Vatten"},{"id":1296228,"priority":3,"createddate":"\/Date(1416804869317+0100)\/","title":"Jönköping","exactlocation":"Åsenvägen","description":"Stängd för genomfart fr o m månd 24/11. Trafiken leds delvis om pga ett arbete i höjd med Kristinedals äldreboende. Åsenvägen beräknas öppnas 13/12 igen.","latitude":57.779798111199149,"longitude":14.162714906803089,"category":0,"subcategory":"Trafikstörning"},{"id":1293455,"priority":3,"createddate":"\/Date(1416805408130+0100)\/","title":"Rv 50 Skänninge-Motala","exactlocation":"Skänninge-Fågelsta","description":"Flaggvakter reglerar trafiken kl 06-18. Lednings- och kabelarbete.","latitude":58.449649810791016,"longitude":15.048783302307129,"category":0,"subcategory":"Vägarbete"},{"id":1144336,"priority":3,"createddate":"\/Date(1416848054510+0100)\/","title":"Guldheden","exactlocation":"Wavrinskys plats - Kapellplatsen ","description":"Efter ett långvarigt vägarbete med stopp för all trafik att köra Guldheden-Ashebergsgatan, är det nu öppet  för trafik igen.","latitude":57.68997948327582,"longitude":11.970247137932155,"category":0,"subcategory":"Vägarbete"},{"id":1269645,"priority":5,"createddate":"\/Date(1416848965617+0100)\/","title":"Lv 587 Jordfallsbron","exactlocation":"","description":"Risk för kö när man passerar vägarbetet.","latitude":57.855087280273438,"longitude":12.01069164276123,"category":0,"subcategory":"Vägarbete"},{"id":1293322,"priority":5,"createddate":"\/Date(1416849142867+0100)\/","title":"Sävenäsleden","exactlocation":"","description":"Broreperation.","latitude":57.726161956787109,"longitude":12.023475646972656,"category":0,"subcategory":"Vägarbete"},{"id":1264122,"priority":5,"createddate":"\/Date(1416924525563+0100)\/","title":"Västra Götalands län","exactlocation":"","description":"Fuktiga och våta vägbanor.","latitude":58.0697441,"longitude":12.3502855,"category":0,"subcategory":"Trafikstörning"},{"id":1292348,"priority":3,"createddate":"\/Date(1416985323867+0100)\/","title":"E6 Kålleredsmotet -Torrekullamotet","exactlocation":"Brännemadsbron","description":"Lagning av bropelare i mitten av vägen. Arbetet beräknas pågå till 31 januari 2015.","latitude":57.611381530761719,"longitude":12.045278549194336,"category":0,"subcategory":"Vägarbete"},{"id":1299343,"priority":3,"createddate":"\/Date(1416998109833+0100)\/","title":"Rv 70 Enköping-Sala","exactlocation":"Vid Fjärdhundra","description":"Broarbete med sänkt hastighet. ","latitude":59.769515991210938,"longitude":16.911821365356445,"category":0,"subcategory":"Vägarbete"},{"id":1299462,"priority":3,"createddate":"\/Date(1417010976087+0100)\/","title":"E18/E20 Arboga-Örebro","exactlocation":"Nära E20 i Arboga ","description":"Beläggningsarbete.","latitude":59.404861450195312,"longitude":15.754440307617187,"category":0,"subcategory":"Vägarbete"},{"id":1255524,"priority":3,"createddate":"\/Date(1417062910950+0100)\/","title":"E4 Huskvarna","exactlocation":"Huskvarna N (101), i båda riktningar","description":"Avstängt körfält. Arbete med bullerplank.","latitude":57.816932678222656,"longitude":14.271590232849121,"category":0,"subcategory":"Vägarbete"},{"id":1293336,"priority":3,"createddate":"\/Date(1417065156363+0100)\/","title":"E45 Hökbäck-Lit","exactlocation":"","description":"Nedsatt hastighet till 30 km/t på bron pga arbete.","latitude":63.3145866394043,"longitude":14.867941856384277,"category":0,"subcategory":"Vägarbete"},{"id":1299518,"priority":3,"createddate":"\/Date(1417068138213+0100)\/","title":"Rv 56 Kungsör-Katrineholm","exactlocation":"Mellan Äs och Bie ","description":"Beläggningsarbete.","latitude":59.151985168457031,"longitude":16.108791351318359,"category":0,"subcategory":"Vägarbete"},{"id":1294935,"priority":3,"createddate":"\/Date(1417070694783+0100)\/","title":"E16 Hofors-Ängelsfors","exactlocation":"I närheten av Edsken","description":"Trafiken regleras med ljussignaler.","latitude":60.544136047363281,"longitude":16.218639373779297,"category":0,"subcategory":"Vägarbete"},{"id":1298541,"priority":3,"createddate":"\/Date(1417075898050+0100)\/","title":"E45 Gullbergsmotet-Marieholmsmotet","exactlocation":"I riktning mot Karlstad","description":"Vägarbete.","latitude":57.720874786376953,"longitude":11.995035171508789,"category":0,"subcategory":"Vägarbete"},{"id":1299171,"priority":3,"createddate":"\/Date(1417076232857+0100)\/","title":"E4 Dalkarkså-Rickleå","exactlocation":"Bygdeå Norra -tpl Sävar Norra riktning mot Sundsvall","description":"Vägarbete. Tillfällig hastighetsnedsättning vid arbetet 30 km/tim.","latitude":64.065597534179688,"longitude":20.849803924560547,"category":0,"subcategory":"Vägarbete"},{"id":1298740,"priority":3,"createddate":"\/Date(1417083261977+0100)\/","title":"E4 Hyttön-tpl Gävle Södra","exactlocation":"Båda körriktningar","description":"Röjningsarbete i mittremsa mellan körbanorna. Arbetet utförs vardagar kl 07:00-16:00","latitude":60.573589324951172,"longitude":17.229345321655273,"category":0,"subcategory":"Vägarbete"},{"id":1300083,"priority":3,"createddate":"\/Date(1417090653947+0100)\/","title":"Lv 190 Göteborg-Gråbo","exactlocation":"Olofstorp","description":"Vägarbete i riktning mot Gråbo","latitude":57.815376281738281,"longitude":12.189538955688477,"category":0,"subcategory":"Vägarbete"},{"id":1300156,"priority":3,"createddate":"\/Date(1417096700300+0100)\/","title":"Lv 149 Kappelshamn","exactlocation":"","description":"Underhållsarbete.","latitude":57.853416442871094,"longitude":18.778120040893555,"category":0,"subcategory":"Vägarbete"},{"id":1299429,"priority":3,"createddate":"\/Date(1417106646750+0100)\/","title":"Lv 906 Eds Kyrka-Österrå ","exactlocation":"","description":"Vägen avstängd. Akut reparation av vägskada.","latitude":63.3035888671875,"longitude":17.165678024291992,"category":0,"subcategory":"Vägarbete"},{"id":1300263,"priority":3,"createddate":"\/Date(1417107829530+0100)\/","title":"Lv 660 Trevlinge–Sandbol","exactlocation":"","description":"Kabelarbete på sträckan.","latitude":59.939731597900391,"longitude":17.883937835693359,"category":0,"subcategory":"Vägarbete"},{"id":1298812,"priority":3,"createddate":"\/Date(1417111224037+0100)\/","title":"E6 Kungälv-Göteborg","exactlocation":"Vid Klarebergsmotet (82) riktning söderut","description":"Underhållsarbete","latitude":57.810920715332031,"longitude":12.006141662597656,"category":0,"subcategory":"Vägarbete"},{"id":1264120,"priority":5,"createddate":"\/Date(1417155651857+0100)\/","title":"Hallands län","exactlocation":"","description":"Halt väglag på mindre vägar i området mellen Halmstad och Falkenberg.","latitude":56.9494667,"longitude":12.8037291,"category":0,"subcategory":"Halkvarning"},{"id":1298201,"priority":3,"createddate":"\/Date(1417157773753+0100)\/","title":"Rv 23 Höör-Snogeröd","exactlocation":"Vid Gamla Bo","description":"Risk för köer. Trafiken regleras med vakt.","latitude":55.866470336914063,"longitude":13.496500968933105,"category":0,"subcategory":"Vägarbete"},{"id":1293942,"priority":3,"createddate":"\/Date(1417163633600+0100)\/","title":"Uppsala","exactlocation":"Stora torget ","description":"Torget avstängt för busstrafik under Musikhjälpen. Mellan 1/12 och 16/12. Trångt på bland annat Östra Ågatan och Bangårdsgatan","latitude":59.867568193579871,"longitude":17.640432160692505,"category":1,"subcategory":"Buss"},{"id":1263645,"priority":5,"createddate":"\/Date(1417235854347+0100)\/","title":"Blekinge län","exactlocation":"","description":"","latitude":56.3117943,"longitude":15.2829609,"category":0,"subcategory":"Halkvarning"},{"id":1300644,"priority":5,"createddate":"\/Date(1417411252417+0100)\/","title":"Lv 272  Sandviken, i båda riktningar.","exactlocation":"","description":" Belysningasrbete","latitude":60.628974914550781,"longitude":16.784378051757813,"category":0,"subcategory":"Vägarbete"},{"id":1300831,"priority":4,"createddate":"\/Date(1417411480933+0100)\/","title":"Lv 240 Molkom-Sunnemo","exactlocation":"I höjd med Älvsbacka","description":"Avstängt körfält och nedsatt hastighet.","latitude":59.708755493164063,"longitude":13.680062294006348,"category":0,"subcategory":"Vägarbete"},{"id":1297072,"priority":3,"createddate":"\/Date(1417411511010+0100)\/","title":"Röduppleden","exactlocation":"","description":"Färjan ersatt av isväg. Bruttovikt för fordon: 2 ton.","latitude":66.485633850097656,"longitude":22.777805328369141,"category":0,"subcategory":"Trafikstörning"},{"id":1301683,"priority":3,"createddate":"\/Date(1417412946863+0100)\/","title":"Bohedenleden","exactlocation":"","description":"Isvägen är öppen för fordon upp till 2 ton.","latitude":66.306289672851563,"longitude":22.914651870727539,"category":1,"subcategory":"Färja"},{"id":1301969,"priority":3,"createddate":"\/Date(1417414895773+0100)\/","title":"Lv 654 Trönö kyrka-Storsjön ","exactlocation":"","description":"Vägen avstängd i höjd med Stärte","latitude":61.416843414306641,"longitude":16.794029235839844,"category":0,"subcategory":"Vägarbete"},{"id":1300632,"priority":3,"createddate":"\/Date(1417429881057+0100)\/","title":"E6 Uddevalla–Munkedal","exactlocation":"Vid Saltkällan, i riktning mot Munkedal","description":"Arbete i norrgående riktning.","latitude":58.436489105224609,"longitude":11.708499908447266,"category":0,"subcategory":"Vägarbete"},{"id":1302230,"priority":3,"createddate":"\/Date(1417433207880+0100)\/","title":"Mjölby","exactlocation":"Området kring Lagmanskolan, Ringvägen och Svartåliden","description":"En stickig lukt kan kännas i vissa avlopp. Detta beror på tätningsarbete av avloppsledningar (med hjälp av s k infodring). Lukten är ofarlig och försvinner snabbt.","latitude":58.327584357974459,"longitude":15.133341890797279,"category":3,"subcategory":"Övrigt"},{"id":1263022,"priority":3,"createddate":"\/Date(1417440111990+0100)\/","title":"Rv 40 Ulricehamn","exactlocation":"","description":"Arbete med att bygga den nya rv 40.","latitude":57.803955078125,"longitude":13.475101470947266,"category":0,"subcategory":"Vägarbete"},{"id":1266974,"priority":3,"createddate":"\/Date(1417440190740+0100)\/","title":"Rv 27/41 Borås","exactlocation":"Varbergsvägen till och från Borås","description":"Bygge av ny väg mellan Kråkered-Viared.","latitude":57.682376861572266,"longitude":12.935855865478516,"category":0,"subcategory":"Vägarbete"},{"id":1302570,"priority":3,"createddate":"\/Date(1417465964843+0100)\/","title":"Lv531 Mittådalen-Ljungdalen","exactlocation":"","description":"1/12 - 15/4. Vägen över Flatruet är nattstängd mellan kl 22:00 tom 06:00. ","latitude":62.775653839111328,"longitude":12.765754699707031,"category":0,"subcategory":"Trafikstörning"},{"id":1302205,"priority":3,"createddate":"\/Date(1417495825107+0100)\/","title":"Lv 910 Åkers Styckebruk-Merlänna","exactlocation":"","description":"Vägarbete.","latitude":59.273712158203125,"longitude":17.040412902832031,"category":0,"subcategory":"Vägarbete"},{"id":1300686,"priority":3,"createddate":"\/Date(1417495841497+0100)\/","title":"Halmstad","exactlocation":"Slottsjordsvägen, från Skepparegatan till Slottsrondellen","description":"Avstängt mån-tors (1-4 dec) in mot rondellen. Fre-tor (5-11 dec) avstängt ut från rondellen. Följ orange skyltning.","latitude":56.670523460623528,"longitude":12.8529426316641,"category":0,"subcategory":"Vägarbete"},{"id":1302671,"priority":3,"createddate":"\/Date(1417498238740+0100)\/","title":"Lv 521  Hagsarve -Hablingbo ","exactlocation":"","description":"","latitude":57.186882019042969,"longitude":18.25337028503418,"category":0,"subcategory":"Vägarbete"},{"id":1300663,"priority":3,"createddate":"\/Date(1417498657597+0100)\/","title":"Gamla Stan - Södermalm","exactlocation":"Skeppsbron","description":"Trafiken avstängd mot Söder Mälarstrand fr o m måndag 1 dec. Kör Hornsgatan","latitude":59.32108627619224,"longitude":18.072383264404465,"category":0,"subcategory":"Trafikstörning"},{"id":1302696,"priority":3,"createddate":"\/Date(1417502194330+0100)\/","title":"Rv 86 Bergsåker-Kovland","exactlocation":"","description":"Begränsad framkomlighet och tillfälligt nedsatt hastighet.","latitude":62.435581207275391,"longitude":17.17411994934082,"category":0,"subcategory":"Vägarbete"},{"id":1302788,"priority":3,"createddate":"\/Date(1417507007283+0100)\/","title":"E10 Hakkas-Skröven","exactlocation":"","description":"Många renar på eller intill vägen.","latitude":66.840150373393527,"longitude":21.714019055563632,"category":0,"subcategory":"Trafikstörning"},{"id":1302787,"priority":3,"createddate":"\/Date(1417507155833+0100)\/","title":"Rv 52 Katrineholm mot Nyköping ","exactlocation":"Kerstinboda","description":"Beläggningsarbete","latitude":58.995468139648438,"longitude":16.1881046295166,"category":0,"subcategory":"Vägarbete"},{"id":1295493,"priority":3,"createddate":"\/Date(1417510719407+0100)\/","title":"Norra länken","exactlocation":"Frescati","description":"Infart för trafik som vill mot Värtan","latitude":59.3607958420011,"longitude":18.056147618156558,"category":0,"subcategory":"Trafikstörning"},{"id":1301946,"priority":3,"createddate":"\/Date(1417510731187+0100)\/","title":"Norra länken","exactlocation":"Essingeleden mot Värtan","description":"Kör via Norrtull-Cedesdalsgatan och in i tunneln vid Roslagstull","latitude":59.350171974859144,"longitude":18.043568618275284,"category":0,"subcategory":"Trafikstörning"},{"id":1295495,"priority":3,"createddate":"\/Date(1417510762127+0100)\/","title":"Norra länken ","exactlocation":"Haga Södra","description":"Infart för trafik mot Frescati och Värtan. ","latitude":59.353114798023711,"longitude":18.039666642786191,"category":0,"subcategory":"Trafikstörning"},{"id":1295489,"priority":3,"createddate":"\/Date(1417510795720+0100)\/","title":"Norra länken ","exactlocation":"Värtan","description":"Tre utfarten att välja på Frescati, Roslagstull eller Haga Södra","latitude":59.350933443982171,"longitude":18.10368352642142,"category":0,"subcategory":"Trafikstörning"},{"id":1295498,"priority":3,"createddate":"\/Date(1417510819627+0100)\/","title":"Norra länken ","exactlocation":"Lill-Jansskogen Björnnäsvägen","description":"Stängs för genomfartstrafik i samband med Norra länkens öppnande","latitude":59.356665472369812,"longitude":18.082211044132162,"category":0,"subcategory":"Trafikstörning"},{"id":1295492,"priority":3,"createddate":"\/Date(1417511034283+0100)\/","title":"Norra länken ","exactlocation":"Roslagstull","description":"Infart för trafik mot Värtan","latitude":59.3516210598397,"longitude":18.056380181308541,"category":0,"subcategory":"Trafikstörning"},{"id":1299851,"priority":3,"createddate":"\/Date(1417511049267+0100)\/","title":"Norra länken ","exactlocation":"Valhallavägen och Lidingövägen","description":"Risk för köbildning, Färre körfält då det nu är busskörfält nästan hela sträckan.","latitude":59.345937335529413,"longitude":18.069979365054955,"category":0,"subcategory":"Trafikstörning"},{"id":1302751,"priority":3,"createddate":"\/Date(1417518409707+0100)\/","title":"Lv 120 Älmhult","exactlocation":"Mellan Torngatan och Centrum","description":"Mindre asfalteringsarbeten. ","latitude":56.556388854980469,"longitude":14.148046493530273,"category":0,"subcategory":"Vägarbete"},{"id":1302770,"priority":3,"createddate":"\/Date(1417517822940+0100)\/","title":"Rv 25/27 Växjö","exactlocation":"Tpl Kvälleberg","description":"Kabelarbete. Sänkt hastighet till 30 km/h. ","latitude":56.896316528320312,"longitude":14.732833862304688,"category":0,"subcategory":"Vägarbete"},{"id":1300614,"priority":3,"createddate":"\/Date(1417524256100+0100)\/","title":"E45 Göteborg-Bohus","exactlocation":"Vid Lärjemotet riktning mot Göteborg","description":"Belysningsarbete under vardagar 09:00-15:00.","latitude":57.7618408203125,"longitude":12.005104064941406,"category":0,"subcategory":"Vägarbete"},{"id":1294980,"priority":3,"createddate":"\/Date(1417529255557+0100)\/","title":"Linköping","exactlocation":"Gumpekullavägen, mellan Gumpekullarondellen och Runstensgatan","description":"Avstängt 3–12 dec. Omledning via Norrköpingsvägen och Kallestadsleden. Renovering av en avloppsledning. ","latitude":58.422139552505108,"longitude":15.636365096748397,"category":0,"subcategory":"Vägarbete"},{"id":1299283,"priority":5,"createddate":"\/Date(1417530431860+0100)\/","title":"Lv 205 Karlskoga-Grythyttan","exactlocation":"Kärne-Kedjeåsen","description":"Nedsatt hastighet till 50 km/t.","latitude":59.463092803955078,"longitude":14.502652168273926,"category":0,"subcategory":"Vägarbete"},{"id":1303131,"priority":3,"createddate":"\/Date(1417534500467+0100)\/","title":"Övre Husargatan, Göteborg","exactlocation":"Brunnsgatan","description":"Arbete med att ta bort trafikljusen för biltrafiken och fotgängare på södra sidan av cirkulationsplatsen. Planerat vara klart innan jul.","latitude":57.69402128736423,"longitude":11.957538293121674,"category":0,"subcategory":"Vägarbete"},{"id":1303155,"priority":3,"createddate":"\/Date(1417537008593+0100)\/","title":"Kungsportsavenyn","exactlocation":"Gustav Adolfstorg-Götaplatsen","description":"5/12 Fackeltåg mot Götaplatsen,16.30 där \"Julstad Göteborg\"  invigs 17:00. Begränsad framkomlighet och gatorna närmast Götaplatsen stängs av.","latitude":57.69812980493748,"longitude":11.978323226132458,"category":0,"subcategory":"Trafikstörning"},{"id":1302974,"priority":3,"createddate":"\/Date(1417538206040+0100)\/","title":"Rv 84 Glissjöberg-Linsell","exactlocation":"","description":"Renar på och intill vägen.","latitude":62.141592631164869,"longitude":13.980666167418551,"category":0,"subcategory":"Trafikstörning"},{"id":1287440,"priority":5,"createddate":"\/Date(1417538997550+0100)\/","title":"Lv 1936 Bjärnum","exactlocation":"","description":"Avständ väg. Trafiken leds om.","latitude":56.295093536376953,"longitude":13.722196578979492,"category":0,"subcategory":"Vägarbete"},{"id":1300537,"priority":5,"createddate":"\/Date(1417541955947+0100)\/","title":"E4 Ullånger-Bjästa","exactlocation":"Ullånger till Ullångersfjärden","description":"Körfält avstängt och nedsatt hastighet i vägarbetsområdet. Kabeldragning under vägen.","latitude":63.010887145996094,"longitude":18.189863204956055,"category":0,"subcategory":"Vägarbete"},{"id":1303386,"priority":3,"createddate":"\/Date(1417587586287+0100)\/","title":"Lv 571 Skattkärrsmotet–Ve","exactlocation":"","description":"Dräneringsarbete på sträckan.","latitude":59.418514251708984,"longitude":13.668801307678223,"category":0,"subcategory":"Vägarbete"},{"id":1303358,"priority":3,"createddate":"\/Date(1417590603657+0100)\/","title":"Uppsala","exactlocation":"Vattholmavägen","description":"Råbyvägen och Gl:a Uppsalagatan. VA-arbeten. Berör både cyklister, fotgängare och biltrafik","latitude":59.866179241943556,"longitude":17.641540191419551,"category":0,"subcategory":"Vägarbete"},{"id":1286816,"priority":3,"createddate":"\/Date(1417602621980+0100)\/","title":"E22 Kristianstad–Tollarp","exactlocation":"Vid Nöbbelöv i båda riktningar","description":"Trafiken regleras med vakt och lots. ","latitude":55.9665641784668,"longitude":14.073190689086914,"category":0,"subcategory":"Vägarbete"},{"id":1303959,"priority":4,"createddate":"\/Date(1417629648540+0100)\/","title":"Östergötland län","exactlocation":"Motala, Mjölby, Norrköping, Finspång, Åtvidaberg\n","description":"4/12 kl 10.00 till 16.00. Dokumentation av kraftledningarna med lågt flygande helikopter. ","latitude":58.549113056750841,"longitude":15.043870249553832,"category":3,"subcategory":"Buller"},{"id":1303961,"priority":4,"createddate":"\/Date(1417629673117+0100)\/","title":"Örebro län","exactlocation":"Askersund, Kumla\n","description":"4/12 kl 10.00 till 16.00. Dokumentation av kraftledningarna med lågt flygande helikopter. ","latitude":58.87987647573879,"longitude":14.911846751325665,"category":3,"subcategory":"Buller"},{"id":1264254,"priority":3,"createddate":"\/Date(1417649761400+0100)\/","title":"Västernorrlands län ","exactlocation":"   ","description":"Risk för lokal frosthalka, i övrigt väntas ingen större förändring av väglaget under kvällen.","latitude":62.8307724,"longitude":17.636301,"category":0,"subcategory":"Halkvarning"},{"id":1300041,"priority":4,"createddate":"\/Date(1417667433953+0100)\/","title":"Stockholm","exactlocation":"","description":"Blodbussar torsdag 4. dec: Storforsplan 36 Farsta C, Kanalvägen 7 Infra City, Byängsgränd 6 Årsta, Intertek Torshamnsgatan 43 Kista, SC Motors Hyndai Bergkällavägen 32 Sollentuna.\n","latitude":59.323678154411489,"longitude":18.043929222776747,"category":3,"subcategory":"Hälsa och sjukvård"},{"id":1298791,"priority":3,"createddate":"\/Date(1417667861797+0100)\/","title":"Marks kommun","exactlocation":"Sätilaskolan","description":"Tisdag 2/12 och onsdag 3/12. Samtliga elever har undervisning på skolan eller externt. Nya besked kommer om torsdagen och fredagen.","latitude":57.544399341127871,"longitude":12.440167953776731,"category":3,"subcategory":"Övrigt"},{"id":1147853,"priority":3,"createddate":"\/Date(1417668513830+0100)\/","title":"Jönköping","exactlocation":"Teater- och Museirondellen","description":"Öppet för all trafik igen. Från och med lördag kommer busslinjer 27 och 28 börja köra den nya bussgatan från Södra Strandgatan till Kålgårdsrondellen.","latitude":57.778144915539876,"longitude":14.174143777785334,"category":0,"subcategory":"Vägarbete"},{"id":1302963,"priority":3,"createddate":"\/Date(1417668939750+0100)\/","title":"Lv 204 Svartå Herrgård - Mullhyttan båda riktningarna ","exactlocation":"","description":"Arbete med vägtrummor, ett körfält avstängt.","latitude":59.129600524902344,"longitude":14.623594284057617,"category":0,"subcategory":"Vägarbete"},{"id":1303433,"priority":3,"createddate":"\/Date(1417669997707+0100)\/","title":"Rv 90 S Sollefteå- tpl Hågesta","exactlocation":" båda riktningarna ","description":"Akut ledningsarbete i vägkanterna. Begränsad framkomlighet, och nedsatt hastighet till 50 km/h förbi arbetsplatsen mellan 7:00 och 16:00 på vardagar. ","latitude":63.159317016601563,"longitude":17.293880462646484,"category":0,"subcategory":"Vägarbete"},{"id":1304124,"priority":4,"createddate":"\/Date(1417671658470+0100)\/","title":"Ljungby kommun","exactlocation":"Bredemads återvinningsstation","description":"Fr o m årsskiftet införs genomskinliga sopsäckar för brännbart avfall. Ljungbybor kan nu fritt hämta tre säckar på återvinningsstationen.","latitude":56.8488139376662,"longitude":13.952110103716265,"category":3,"subcategory":"Miljö"},{"id":1301161,"priority":3,"createddate":"\/Date(1417672835357+0100)\/","title":"Lv 161 Gullmarsleden","exactlocation":"","description":"Ingen färjetrafik torsdag kväll (4 dec) mellan kl 21 och 01 pga planerat underhållsarbete.","latitude":58.302570343017578,"longitude":11.503938674926758,"category":2,"subcategory":"Färja"},{"id":1302300,"priority":3,"createddate":"\/Date(1417675921127+0100)\/","title":"Gällivare kommun","exactlocation":"Skröven ","description":"Dricksvattnet är otjänligt pga ekolibakterier. Koka vattnet i fem minuter innan det används för matlagning. Dricksvattentank finns uppställd vid vattenverket i byn. ","latitude":66.760422922842608,"longitude":21.881049628791235,"category":3,"subcategory":"Vatten"},{"id":1304282,"priority":4,"createddate":"\/Date(1417685220673+0100)\/","title":"Ledningsnätet mellan Kisa och Tidersrum","exactlocation":"","description":"Kvistning längs ledningsgatan med helikopter. Skapar buller och risk för korta strömavbrott. Pågår till 20 dec. Torsd 4 dec i utkanten av Kisa.","latitude":57.9603726236428,"longitude":15.561112047957222,"category":3,"subcategory":"Buller"},{"id":1304290,"priority":3,"createddate":"\/Date(1417688776270+0100)\/","title":"E4 Norrköping N (122)–Ingelsta (121), i södergående","exactlocation":"","description":"Avstängt körfält. Räckesarbete.","latitude":58.6375732421875,"longitude":16.162076950073242,"category":0,"subcategory":"Vägarbete"},{"id":1302736,"priority":5,"createddate":"\/Date(1417693443667+0100)\/","title":"Lv 363 Rödånäs-Vindeln","exactlocation":"","description":"Begränsad framkomlighet och tillfälligt nedsatt hastighet.","latitude":64.158660888671875,"longitude":19.835674285888672,"category":0,"subcategory":"Vägarbete"},{"id":1301961,"priority":4,"createddate":"\/Date(1417698403057+0100)\/","title":"Blodmobilen","exactlocation":"Arendal","description":"4/12. öppet mellan 09:00-15:00.","latitude":57.698202832983185,"longitude":11.825832116779635,"category":3,"subcategory":"Hälsa och sjukvård"},{"id":1285308,"priority":5,"createddate":"\/Date(1417701644053+0100)\/","title":"Klaratunneln","exactlocation":"Klaratunneln till Mäster Samuelsgatan/Sveavägen i båda riktningarna","description":"Hela tunnelsystemet avstängt mellan kl 22 - 05 på grund av drift- och underhållsarbete,","latitude":59.332599639892578,"longitude":18.065786361694336,"category":0,"subcategory":"Vägarbete"},{"id":1304442,"priority":3,"createddate":"\/Date(1417701985723+0100)\/","title":"E6 Kodemotet (88)-Stenungsundsmotet (91)","exactlocation":"","description":"Dikningsarbete i riktning mot Stenungsund.","latitude":57.942039489746094,"longitude":11.860379219055176,"category":0,"subcategory":"Vägarbete"},{"id":1304445,"priority":3,"createddate":"\/Date(1417702255510+0100)\/","title":"Tranemo Limmared","exactlocation":"","description":"Nästan 1 000 kunder drabbade. Felsökning pågår.","latitude":57.502968382162074,"longitude":13.380715602713254,"category":3,"subcategory":"El"},{"id":1304449,"priority":3,"createddate":"\/Date(1417702899133+0100)\/","title":"Jönköping","exactlocation":"Audionommottagningen Höglandssjukhuset och Ryhov","description":"Stängd för utbildning fredag den 5 december.","latitude":57.817524746523794,"longitude":14.216438490425094,"category":3,"subcategory":"Hälsa och sjukvård"},{"id":1304456,"priority":3,"createddate":"\/Date(1417703496633+0100)\/","title":"Rv 83 Tönnebro-Kilafors","exactlocation":"Stråtjära","description":"Nedsatt hastighet till 40 km/t pga beläggningsarbete.","latitude":61.176025390625,"longitude":16.793476104736328,"category":0,"subcategory":"Vägarbete"},{"id":1304204,"priority":3,"createddate":"\/Date(1417703216633+0100)\/","title":"Gränna-Visingsö","exactlocation":"Färjan Braheborg","description":"Braheborg är tagen ur trafik. Ebba Brahe ersätter, vilket innebär reducerad kapacitet. Gäller t o m den 12/12.","latitude":58.034072875976562,"longitude":14.349037170410156,"category":1,"subcategory":"Färja"},{"id":1263644,"priority":3,"createddate":"\/Date(1417704226430+0100)\/","title":"Kalmar län","exactlocation":"","description":"Lokalt risk för frosthalka under morgonen i länets södra delar. I de norra delarna gäller risken fram till fredag eftermiddag.","latitude":56.8659172,"longitude":15.9477434,"category":0,"subcategory":"Halkvarning"}],"pagination":{"page":1,"size":100,"totalhits":119,"totalpages":2,"nextpage":"http://api.sr.se/api/v2/traffic/messages?format=json&size=100&sort=createddate+desc&page=2"}}